City,Cloudiness,Country,Date,Humidity,Lat,Lng,Max Temp,Wind Speed
Saint George,90,US,1584157038,93,37.1,-113.58,48.99,3.36
Cape Town,75,ZA,1584156472,93,-33.93,18.42,60.01,8.05
Muros,33,ES,1584157163,93,42.78,-9.06,46.0,3.36
Albany,20,US,1584156902,52,42.6,-73.97,42.01,11.41
Jamestown,1,US,1584157168,59,42.1,-79.24,37.0,11.41
George Town,20,MY,1584156917,62,5.41,100.34,89.6,3.36
Gaozhou,76,CN,1584157171,59,21.94,110.85,76.28,6.17
Mataura,0,NZ,1584157172,59,-46.19,168.86,66.07,0.74
Henties Bay,0,NA,1584157173,95,-22.12,14.28,61.0,3.87
Bredasdorp,8,ZA,1584157174,87,-34.53,20.04,55.4,1.12
Atuona,34,PF,1584157176,67,-9.8,-139.03,82.8,9.15
Mahébourg,75,MU,1584157177,100,-20.41,57.7,79.0,7.72
Ushuaia,68,AR,1584157136,81,-54.8,-68.3,48.2,6.93
Khanbari,100,NP,1584157179,60,27.37,87.2,48.29,4.29
Palencia,0,ES,1584157180,81,42.42,-4.5,37.99,3.38
Souillac,75,MU,1584157181,100,-20.52,57.52,79.0,7.72
Lebu,0,CL,1584157182,94,-37.62,-73.65,49.59,3.98
Bluff,23,NZ,1584157183,50,-46.6,168.33,64.45,5.59
Torbay,90,CA,1584157185,73,47.67,-52.73,27.0,12.75
Kruisfontein,4,ZA,1584157186,94,-34.0,24.73,63.21,5.28
Manaure,0,CO,1584157187,86,11.78,-72.44,77.43,15.9
Piopio,0,NZ,1584157188,31,-38.47,175.02,82.0,3.0
Plettenberg Bay,4,ZA,1584157189,92,-34.05,23.37,64.87,4.18
Hilo,90,US,1584157190,83,19.73,-155.09,75.2,9.17
Port Alfred,1,ZA,1584157191,97,-33.59,26.89,66.0,1.01
Grand Gaube,75,MU,1584157070,100,-20.01,57.66,79.0,11.43
Tasiilaq,100,GL,1584157193,77,65.61,-37.64,6.8,1.12
San Quintín,7,MX,1584157194,82,30.48,-115.95,60.1,4.03
Fuxin,0,CN,1584157195,32,42.02,121.66,41.88,12.19
Nikolskoye,100,RU,1584157196,58,59.7,30.79,24.8,11.18
Srednekolymsk,55,RU,1584157197,90,67.45,153.68,-13.61,12.08
Hasaki,75,JP,1584157198,93,35.73,140.83,41.0,16.11
Yangi Marg`ilon,90,UZ,1584157199,65,40.43,71.72,46.4,6.93
Ponta do Sol,75,PT,1584157200,63,32.67,-17.1,60.8,14.99
Pitimbu,40,BR,1584157202,94,-7.47,-34.81,78.8,6.76
Husavik,90,IS,1584157203,73,66.04,-17.34,26.6,23.04
Kapaa,40,US,1584157035,60,22.08,-159.32,77.0,10.29
Mapastepec,0,MX,1584157205,79,15.43,-92.9,74.17,3.62
Kaitangata,0,NZ,1584157206,84,-46.28,169.85,54.99,8.75
New Norfolk,75,AU,1584157207,47,-42.78,147.06,62.01,16.11
Kalmunai,60,LK,1584157208,67,7.42,81.82,81.88,10.04
Mossamedes,100,AO,1584157210,73,-15.2,12.15,75.07,5.59
Serafimovich,100,RU,1584157211,75,49.58,42.74,44.01,8.61
Lavrentiya,100,RU,1584157050,95,65.58,-171.0,29.97,20.45
Avarua,8,CK,1584157213,74,-21.21,-159.78,84.2,4.7
Sobolevo,0,RU,1584157214,88,54.43,31.9,32.0,7.56
Saint-Philippe,75,RE,1584156928,94,-21.36,55.77,77.0,17.22
Tuktoyaktuk,75,CA,1584157216,92,69.45,-133.04,19.4,31.09
Parrita,20,CR,1584157217,68,9.52,-84.32,71.6,11.41
Amapá,85,BR,1584157219,93,1.0,-52.0,74.37,5.23
Mar del Plata,0,AR,1584157220,78,-38.0,-57.56,75.0,11.41
Khatanga,100,RU,1584157221,84,71.97,102.5,3.15,17.02
Punta Arenas,57,CL,1584157222,62,-53.15,-70.92,51.8,21.92
Butaritari,100,KI,1584157117,71,3.07,172.79,83.89,10.25
Oistins,40,BB,1584157224,83,13.07,-59.53,77.0,19.46
Muli,26,MV,1584157225,77,2.92,73.57,82.65,8.08
Atambua,50,ID,1584157226,69,-9.11,124.89,81.73,6.51
Aguada de Pasajeros,1,CU,1584157227,83,22.39,-80.85,73.4,8.05
Oriximiná,50,BR,1584157229,90,-1.77,-55.87,76.69,3.96
Severo-Kuril'sk,82,RU,1584157230,91,50.68,156.12,22.39,30.51
Qaanaaq,1,GL,1584157232,56,77.48,-69.36,-21.69,5.86
Lagoa,40,PT,1584157080,71,39.05,-27.98,60.04,6.98
Colomi,75,BO,1584157236,67,-17.35,-65.87,62.6,3.36
Kambove,96,CD,1584157237,98,-10.88,26.6,61.23,1.23
Poum,100,NC,1584157120,83,-20.23,164.02,81.63,10.31
Aklavik,75,CA,1584157239,68,68.22,-135.01,24.8,3.36
Mayumba,100,GA,1584157240,78,-3.43,10.66,82.4,0.6
Vila Velha,90,BR,1584157241,94,-20.33,-40.29,75.2,3.36
Boyuibe,82,BO,1584157242,66,-20.42,-63.28,71.19,4.7
Busselton,100,AU,1584156946,28,-33.65,115.33,87.01,3.56
Gamba,100,GA,1584157244,90,-2.65,10.0,77.95,2.19
Roald,20,NO,1584157246,60,62.58,6.13,32.0,11.41
Pevek,100,RU,1584157247,93,69.7,170.31,-3.95,8.1
Tuatapere,68,NZ,1584157248,45,-46.13,167.68,66.06,2.51
Hobart,75,AU,1584157210,47,-42.88,147.33,62.01,16.11
Khromtau,78,KZ,1584157250,79,50.25,58.43,33.73,15.48
Barrow,90,US,1584157251,85,71.29,-156.79,24.8,35.57
Non Thai,5,TH,1584157252,53,15.2,102.04,97.0,5.82
Kokoda,100,PG,1584157253,70,-8.88,147.74,72.7,7.23
Pisco,46,PE,1584157254,83,-13.7,-76.22,75.99,16.11
Ajra,20,IN,1584157255,41,16.12,74.2,75.2,4.7
Amarante do Maranhão,100,BR,1584157258,97,-5.57,-46.74,72.86,3.47
Quatre Cocos,75,MU,1584157259,100,-20.21,57.76,79.0,13.51
De Aar,0,ZA,1584157260,81,-30.65,24.01,61.59,7.36
Mikkeli,75,FI,1584157261,79,61.69,27.27,19.4,8.05
Port Elizabeth,90,ZA,1584157226,100,-33.92,25.57,62.6,12.75
Juan de Ayolas,3,PY,1584157263,47,-27.4,-56.9,83.05,3.87
East London,8,ZA,1584157264,86,-33.02,27.91,72.03,15.93
Nara,75,JP,1584157184,81,34.69,135.8,50.0,2.24
Xining,66,CN,1584157267,35,36.62,101.77,34.12,2.55
Ancud,6,CL,1584157268,100,-41.87,-73.82,46.4,3.36
Māngrol,0,IN,1584157269,54,21.12,70.12,71.8,17.63
Havøysund,100,NO,1584157271,85,71.0,24.66,15.8,26.4
Vawkavysk,40,BY,1584157272,69,53.16,24.45,37.4,31.32
Loukhi,100,RU,1584157273,91,66.08,33.04,18.05,21.99
Keetmanshoop,0,NA,1584157274,59,-26.58,18.13,64.4,3.36
Qasigiannguit,100,GL,1584157275,71,68.82,-51.19,5.0,17.22
Chui,0,UY,1584157276,82,-33.7,-53.46,70.81,11.74
Adrar,0,MR,1584157277,13,20.5,-10.07,63.91,4.7
Santa Isabel Rio Negro,36,BR,1584157278,70,-0.41,-65.02,78.84,1.63
Tucumã,100,BR,1584157153,94,-0.18,-50.05,77.14,9.37
Narrabri,0,AU,1584157280,28,-30.32,149.78,82.4,10.29
Rio Grande,0,BR,1584157281,87,-32.03,-52.1,73.99,1.01
Innisfail,94,AU,1584157282,39,-17.53,146.03,88.0,4.0
Margate,100,GB,1584157283,87,51.38,1.39,46.4,14.99
Cabedelo,40,BR,1584157284,94,-6.98,-34.83,78.8,6.11
Faanui,100,PF,1584157286,77,-16.48,-151.75,83.07,14.5
Santo Niño,20,PH,1584157287,38,6.43,124.7,93.2,9.17
Ilulissat,100,GL,1584157288,71,69.22,-51.1,5.0,17.22
Rikitea,24,PF,1584157289,74,-23.12,-134.97,77.11,12.35
Ahipara,78,NZ,1584157290,69,-35.17,173.17,69.24,6.89
Beyneu,0,KZ,1584157291,61,45.32,55.2,43.41,9.31
Puerto Ayora,53,EC,1584157118,82,-0.74,-90.35,79.0,5.01
Hithadhoo,20,MV,1584157294,58,-0.6,73.08,83.64,7.29
Río Gallegos,95,AR,1584157295,70,-51.62,-69.22,48.2,8.05
Half Moon Bay,90,US,1584157231,76,37.46,-122.43,55.99,9.17
Arraial do Cabo,0,BR,1584157297,86,-22.97,-42.03,77.32,11.61
Bathsheba,40,BB,1584157300,83,13.22,-59.52,77.0,19.46
Acapulco de Juárez,40,MX,1584157199,74,16.86,-99.89,80.6,4.7
Bubaque,0,GW,1584157303,60,11.28,-15.83,81.86,12.3
Thompson,40,CA,1584157258,49,55.74,-97.86,-0.4,8.05
Bambous Virieux,75,MU,1584157305,100,-20.34,57.76,79.0,11.77
Bethel,1,US,1584157089,36,41.37,-73.41,54.0,11.41
Nacozari,100,MX,1584157307,78,25.34,-108.26,70.0,5.99
Hong Kong,24,HK,1584157279,56,22.29,114.16,75.99,4.7
Launceston,75,AU,1584157244,44,-41.45,147.17,63.0,11.41
Brae,100,GB,1584157310,69,60.4,-1.35,41.0,18.34
Longyearbyen,40,SJ,1584157313,70,78.22,15.64,-5.8,20.8
Hermanus,0,ZA,1584157314,94,-34.42,19.23,59.0,5.01
Guerrero Negro,1,MX,1584157252,71,27.98,-114.06,62.67,10.07
Fort Smith,75,US,1584157200,93,35.39,-94.4,45.0,14.99
Carnarvon,40,AU,1584157318,66,-24.87,113.63,86.0,13.87
Nsanje,100,MW,1584157319,97,-16.92,35.26,68.07,2.08
Gorontalo,27,ID,1584157320,51,0.54,123.06,89.55,4.7
Gladstone,0,AU,1584157321,39,-23.85,151.25,84.2,11.41
Naze,75,JP,1584157322,82,28.37,129.48,62.6,11.41
Cururupu,99,BR,1584157323,97,-1.83,-44.87,74.46,2.21
Fortuna,90,US,1584157324,93,40.6,-124.16,48.99,8.05
Saint Paul Harbor,1,US,1584157325,55,57.79,-152.41,37.4,1.32
Constitución,28,CL,1584157327,81,-35.33,-72.42,57.22,6.96
Katsuura,75,JP,1584157283,87,35.13,140.3,48.2,20.8
Lázaro Cárdenas,34,MX,1584157329,82,17.96,-102.2,76.42,2.01
Atasū,7,KZ,1584157330,80,48.68,71.64,25.14,5.99
Kavieng,5,PG,1584157331,78,-2.57,150.8,83.39,13.49
Akdepe,0,TM,1584157332,65,42.06,59.38,41.0,6.93
Tautira,40,PF,1584157333,59,-17.73,-149.15,89.6,9.17
Lorengau,1,PG,1584157334,77,-2.02,147.27,84.42,15.3
Digha,0,IN,1584157335,62,21.68,87.55,78.62,10.31
Nuevo Progreso,3,MX,1584157336,92,23.17,-97.95,73.99,1.01
Igboho,4,NG,1584157337,77,8.83,3.75,75.97,2.73
Phibun Mangsahan,50,TH,1584157338,59,15.24,105.23,93.99,3.36
Constantine,100,DZ,1584157340,93,36.37,6.61,48.2,1.12
Los Llanos de Aridane,75,ES,1584157341,72,28.66,-17.92,66.2,11.41
Sabang,0,ID,1584157342,75,5.89,95.32,83.97,15.57
Nome,90,US,1584157313,86,64.5,-165.41,26.6,14.99
Ivanteyevka,75,RU,1584157121,93,55.97,37.92,37.99,13.42
Vung Tau,39,VN,1584157345,59,10.35,107.08,85.91,13.2
Nauta,100,PE,1584157346,92,-4.51,-73.58,76.03,2.13
Puerto del Rosario,99,ES,1584157348,77,28.5,-13.86,64.4,18.34
Skjervøy,100,NO,1584157349,59,70.03,20.97,25.61,19.44
Vaini,75,TO,1584157187,94,-21.2,-175.2,78.8,12.75
Sola,75,VU,1584157351,66,-13.88,167.55,89.6,15.05
Bereda,90,ES,1584157353,100,43.27,-7.54,46.0,5.82
Beloha,33,MG,1584157355,91,-25.17,45.05,68.74,8.63
Atar,0,MR,1584157356,12,20.52,-13.05,68.22,7.76
Fairbanks,1,US,1584157357,66,64.84,-147.72,24.01,1.99
Bull Savanna,5,JM,1584157358,88,17.89,-77.59,68.0,5.06
Clyde River,90,CA,1584157359,83,70.47,-68.59,-14.8,16.11
Salinópolis,76,BR,1584157360,81,-0.61,-47.36,81.82,13.49
Lüderitz,0,NA,1584157361,82,-26.65,15.16,64.4,5.82
Manjacaze,0,MZ,1584157362,96,-24.71,33.88,69.13,2.46
Neuquén,100,AR,1584157363,36,-38.95,-68.06,64.4,2.24
Lavumisa,77,SZ,1584157364,97,-27.31,31.89,69.22,2.95
Sechura,16,PE,1584157366,88,-5.56,-80.82,74.95,5.75
Karratha,35,AU,1584157367,70,-20.74,116.85,83.17,7.16
Hanzhong,0,CN,1584157371,32,33.07,107.03,58.1,2.33
Qandala,19,SO,1584157372,73,11.47,49.87,73.27,10.96
Hays,90,US,1584157373,78,30.05,-98.03,73.4,17.22
Pokhara,66,NP,1584157374,38,28.23,83.98,68.32,1.3
Batemans Bay,100,AU,1584157375,56,-35.72,150.18,64.0,8.01
Vestmannaeyjar,4,IS,1584157376,77,63.44,-20.27,25.65,18.25
Assomada,81,CV,1584157377,27,15.1,-23.68,73.4,10.29
Matadi,100,CD,1584157378,96,-5.82,13.45,74.21,2.19
Bhandāra,75,IN,1584157379,60,21.17,79.65,73.4,5.82
Thinadhoo,62,MV,1584157380,67,0.53,72.93,83.26,9.35
Paamiut,8,GL,1584157381,64,61.99,-49.67,3.88,10.18
Geraldton,90,AU,1584157386,38,-28.77,114.6,89.6,16.11
Severodvinsk,90,RU,1584157387,100,64.56,39.83,28.4,2.24
Padang,34,ID,1584157208,58,-0.95,100.35,83.84,2.28
Canutama,60,BR,1584157389,90,-6.53,-64.38,76.82,1.68
Yellowknife,20,CA,1584157390,75,62.46,-114.35,-18.0,8.05
Kiunga,76,PG,1584157391,50,-6.12,141.29,92.34,4.72
Abu Dhabi,100,AE,1584157392,35,24.47,54.37,72.0,4.7
Vanimo,100,PG,1584157393,77,-2.67,141.3,82.2,10.38
Leningradskiy,12,RU,1584157388,94,69.38,178.42,-0.58,5.88
Bulgan,0,MN,1584157395,73,48.81,103.53,27.28,5.41
Castro,97,BR,1584157396,76,-24.79,-50.01,60.6,3.89
Dunedin,0,NZ,1584157341,61,-45.87,170.5,64.99,5.99
Cap Malheureux,75,MU,1584157398,100,-19.98,57.61,79.0,11.43
Klaksvík,100,FO,1584157399,86,62.23,-6.59,37.4,9.17
Aswān,0,EG,1584157401,52,24.09,32.91,57.47,8.79
Southbridge,1,US,1584157402,48,42.08,-72.03,46.99,16.11
Necochea,98,AR,1584157403,88,-38.55,-58.74,69.01,11.01
Bowen,91,AU,1584157297,39,-20.02,148.23,87.01,17.22
Vitim,48,RU,1584157405,88,59.45,112.56,4.82,5.82
Maniitsoq,100,GL,1584157406,90,65.42,-52.9,9.01,8.34
Biloela,0,AU,1584157407,34,-24.42,150.5,82.54,19.77
Vardø,100,NO,1584157408,75,70.37,31.11,22.32,26.69
Colares,60,PT,1584157171,93,38.8,-9.45,55.99,9.17
Mindelo,75,CV,1584157410,73,16.89,-24.98,71.6,11.41
Visnes,89,NO,1584157411,64,59.36,5.22,36.0,9.17
San Cristobal,75,VE,1584157414,69,7.77,-72.22,80.6,2.24
Mercedes,16,AR,1584157416,87,-34.65,-59.43,81.0,1.99
Caravelas,99,BR,1584157417,77,-17.71,-39.25,80.31,6.62
Kikwit,95,CD,1584157418,98,-5.04,18.82,69.94,1.14
Coahuayana Viejo,40,MX,1584157419,94,18.73,-103.68,71.6,1.34
Benghazi,2,LY,1584157421,82,32.12,20.07,61.05,9.73
Norman Wells,75,CA,1584157277,77,65.28,-126.83,6.8,4.7
Te Anau,100,NZ,1584157423,62,-45.42,167.72,59.54,4.99
Port Moresby,75,PG,1584157424,79,-9.44,147.18,84.2,17.22
Soanierana Ivongo,75,MG,1584157425,94,-16.92,49.58,78.8,11.97
Susanville,1,US,1584157426,71,40.42,-120.65,48.2,14.99
Erzin,75,TR,1584157427,77,36.96,36.2,61.0,9.17
Kanigoro,24,ID,1584157429,65,-8.13,112.22,85.86,4.09
Airai,12,TL,1584157431,45,-8.93,125.41,82.4,7.11
Changji,0,CN,1584157432,55,44.02,87.32,37.4,2.24
Najrān,97,SA,1584157433,31,17.49,44.13,64.4,9.57
Russell,75,US,1584157434,88,32.35,-85.2,68.0,4.9
Kargasok,4,RU,1584157435,82,59.06,80.86,24.31,14.63
Kasamatsu,75,JP,1584157436,87,35.37,136.76,48.2,6.93
Vostok,99,RU,1584157437,84,46.49,135.88,20.01,8.16
Hobbs,75,US,1584157438,100,32.7,-103.14,51.01,12.75
Willmar,75,US,1584157439,79,45.12,-95.04,28.4,9.17
Zamora,77,EC,1584157294,96,-4.07,-78.96,55.78,2.64
Esperance,75,AU,1584157441,73,-33.87,121.9,69.8,13.87
Qingyuan,24,CN,1584157287,49,23.7,113.03,71.6,11.18
Mattru,0,SL,1584157443,87,7.62,-11.83,77.41,2.93
Tiksi,0,RU,1584157445,82,71.69,128.87,-15.86,4.47
Ekibastuz,3,KZ,1584157446,77,51.67,75.37,23.36,18.21
Alvorada,61,BR,1584157447,86,-12.48,-49.12,75.4,3.27
Terney,23,RU,1584157448,65,45.05,136.61,28.71,4.97
Wakkanai,75,JP,1584157449,58,45.41,141.67,30.2,25.28
Iqaluit,5,CA,1584157450,61,63.75,-68.51,-23.01,13.87
Nishihara,75,JP,1584157451,72,26.18,127.76,66.2,27.51
Sisimiut,100,GL,1584157452,96,66.94,-53.67,-1.05,4.27
Bolitoc,100,PH,1584157453,61,15.74,119.88,83.48,8.25
Saskylakh,33,RU,1584157454,90,71.92,114.08,-15.9,19.19
Altay,0,CN,1584157363,54,47.87,88.12,24.71,3.36
Isangel,75,VU,1584157456,63,-19.55,169.27,91.4,11.41
Montepuez,100,MZ,1584157459,99,-13.13,39.0,69.15,3.56
Chifeng,0,CN,1584157461,32,42.27,118.96,35.94,21.14
Klaeng,13,TH,1584157462,62,12.78,101.65,90.0,7.16
Derzhavīnsk,97,KZ,1584157463,97,51.1,66.32,33.89,17.18
Dikson,100,RU,1584157464,96,73.51,80.55,31.8,20.6
Bow Island,90,CA,1584157465,66,49.87,-111.37,12.2,20.8
Ferrol,90,ES,1584157466,100,43.48,-8.24,46.0,5.82
Ormara,0,PK,1584157467,58,25.21,64.64,71.22,2.91
Baykalovo,100,RU,1584157468,88,57.4,63.77,37.18,16.93
Belmonte,40,BR,1584157469,94,-15.86,-38.88,75.2,3.36
Vao,100,NC,1584157470,89,-22.67,167.48,78.58,11.3
Honningsvåg,100,NO,1584157471,71,70.98,25.97,21.02,17.25
Saint Anthony,1,US,1584157472,63,45.02,-93.22,28.99,8.05
Barcelos,0,PT,1584157474,93,41.54,-8.62,51.01,3.36
Luangwa,99,ZM,1584157475,94,-15.62,30.42,67.15,2.01
Broken Hill,0,AU,1584157476,25,-31.95,141.43,66.2,24.16
Nemuro,20,JP,1584157477,43,43.32,145.57,35.6,6.93
Bintulu,75,MY,1584157478,83,3.17,113.03,84.2,5.82
Ribeira Grande,64,PT,1584157479,78,38.52,-28.7,56.14,4.56
Korsakov,40,RU,1584157480,74,46.63,142.78,28.4,11.18
Lakes Entrance,100,AU,1584157481,53,-37.88,147.98,63.0,3.0
Morki,100,RU,1584157482,83,56.43,48.99,33.76,10.27
Malinyi,99,TZ,1584157483,97,-8.93,36.13,71.28,0.94
Saldanha,51,ZA,1584157484,88,-33.01,17.94,62.6,5.82
Bengkulu,100,ID,1584157486,59,-3.8,102.27,87.53,3.0
Mareeba,40,AU,1584157488,52,-17.0,145.43,89.6,9.17
Le Locle,100,CH,1584157489,75,47.06,6.75,37.99,1.12
Batavia,1,US,1584157311,59,41.85,-88.31,43.0,4.7
Cidreira,0,BR,1584157258,89,-30.18,-50.21,75.36,15.64
Krasnyy Yar,40,RU,1584157492,66,46.53,48.35,35.6,6.71
Quryq,50,KZ,1584157493,69,43.2,51.65,53.02,24.85
Alofi,100,NU,1584157495,94,-19.06,-169.92,80.6,9.17
Winnemucca,1,US,1584157496,19,40.97,-117.74,54.0,11.41
Berlevåg,100,NO,1584157497,74,70.86,29.09,20.86,25.9
Lompoc,90,US,1584157498,81,34.64,-120.46,57.2,6.93
Krasnovishersk,100,RU,1584157499,98,60.41,57.08,32.04,12.68
Oxelösund,0,SE,1584157500,49,58.67,17.1,26.6,10.29
Seoul,1,KR,1584157233,33,37.57,126.98,46.4,5.82
Yar-Sale,100,RU,1584157503,98,66.83,70.83,31.78,14.52
Buala,100,SB,1584157504,75,-8.14,159.59,83.73,13.24
Mabaruma,33,GY,1584157505,98,8.2,-59.78,71.44,1.66
Miepherkeim,75,TR,1584157506,93,38.14,41.01,51.8,11.41
Chokurdakh,100,RU,1584157507,96,70.63,147.92,-15.59,9.22
São Filipe,100,CV,1584157508,57,14.9,-24.5,75.06,12.8
Lumeje,100,AO,1584157509,95,-11.55,20.78,66.78,6.53
Pemangkat,100,ID,1584157510,75,1.17,108.97,82.99,3.78
Hofn,6,IS,1584157459,63,64.25,-15.21,33.69,14.76
Sfântu Gheorghe,39,RO,1584157513,77,45.87,25.78,39.99,4.0
Nouadhibou,0,MR,1584157514,68,20.93,-17.03,68.0,8.05
Banda Aceh,0,ID,1584157417,66,5.56,95.32,84.42,5.53
Batouri,2,CM,1584157516,31,4.43,14.37,70.21,3.15
Westport,1,US,1584157517,32,41.14,-73.36,55.4,14.99
Campbell River,20,CA,1584157518,45,50.02,-125.24,39.2,11.41
Grindavik,75,IS,1584157519,74,63.84,-22.43,28.4,13.87
Pandrup,0,DK,1584157520,84,57.22,9.68,28.0,3.0
Point Pedro,100,LK,1584157521,72,9.82,80.23,81.43,13.76
Port Lincoln,62,AU,1584157522,62,-34.73,135.87,62.31,16.98
Omsukchan,67,RU,1584157523,90,62.53,155.8,-11.81,7.63
Požarevac,38,RS,1584157524,100,44.62,21.18,37.99,3.36
Arlit,0,NE,1584157525,18,18.74,7.39,61.84,5.73
Umeå,0,SE,1584157527,67,63.83,20.26,19.4,13.87
Ketchikan,1,US,1584157528,70,55.34,-131.65,33.8,11.41
Namatanai,0,PG,1584157529,77,-3.67,152.43,83.86,12.35
Khovd,100,MN,1584157530,46,48.01,91.64,19.85,3.13
Santa Rosa,20,PH,1584157531,49,14.31,121.11,91.0,6.93
Kahului,90,US,1584157522,83,20.89,-156.47,73.4,8.05
Santa Cruz del Sur,5,CU,1584157533,78,20.71,-78.0,77.25,21.72
Ati,54,TD,1584157534,24,13.22,18.34,62.17,10.83
Tawao,20,MY,1584157535,66,4.25,117.89,89.6,9.17
Koslan,99,RU,1584157536,94,63.46,48.9,27.25,7.09
Acaraú,100,BR,1584157537,98,-2.89,-40.12,73.96,3.44
Torit,98,SS,1584157538,64,4.41,32.57,80.19,0.38
Pangnirtung,100,CA,1584157540,100,66.15,-65.71,-29.04,1.45
Guía de Isora,40,ES,1584157541,87,28.21,-16.78,66.0,5.82
Cabo San Lucas,75,MX,1584157542,60,22.89,-109.91,72.0,4.7
Impfondo,52,CG,1584157543,84,1.64,18.07,70.41,2.17
Quito,75,EC,1584157354,93,-0.23,-78.52,57.2,4.7
Sørland,90,NO,1584157545,57,67.67,12.69,30.09,15.43
Hay River,20,CA,1584157546,63,60.82,-115.8,-11.2,4.7
Vila Franca do Campo,20,PT,1584157547,82,37.72,-25.43,55.4,6.93
Samarai,100,PG,1584157550,59,-10.62,150.67,87.58,7.18
Mugur-Aksy,96,RU,1584157551,56,50.35,90.5,16.63,7.02
Zhuhai,12,CN,1584157553,73,22.28,113.57,75.99,13.87
Hatillo,75,PR,1584157554,85,18.49,-66.83,75.2,6.93
Udachny,0,RU,1584157555,70,66.42,112.4,-5.8,4.47
Daru,68,PG,1584157556,61,-9.08,143.21,89.17,7.92
Ostrovnoy,100,RU,1584157272,90,68.05,39.51,21.4,22.79
Yarim,34,YE,1584157558,63,14.3,44.38,56.64,6.04
Zhezkazgan,16,KZ,1584157559,85,47.8,67.71,19.4,8.95
Bud,1,US,1584157560,69,39.45,-86.18,42.01,4.76
Philippeville,20,BE,1584157562,86,50.2,4.54,39.99,4.7
Alanya,75,TR,1584157563,93,36.54,32.0,59.0,4.7
Batagay-Alyta,0,RU,1584157564,72,67.8,130.41,-11.88,5.21
Upernavik,100,GL,1584157565,97,72.79,-56.15,-11.34,3.89
São Félix do Xingu,93,BR,1584157569,96,-6.64,-51.99,72.45,0.63
Porto-Novo,40,BJ,1584157570,83,6.5,2.6,84.2,8.05
Sur,100,OM,1584157571,27,22.57,59.53,66.42,2.1
Sioux Lookout,75,CA,1584157310,72,50.1,-91.92,12.2,12.75
Mount Gambier,40,AU,1584157378,42,-37.83,140.77,64.4,20.8
Anuradhapura,0,LK,1584157574,66,8.36,80.42,80.82,8.57
Donghai,32,CN,1584157576,67,22.95,115.64,72.0,8.99
Ilongero,100,TZ,1584157578,98,-4.67,34.87,61.12,2.01
Matelândia,1,BR,1584157579,78,-25.24,-54.0,78.8,5.82
Boguchany,96,RU,1584157580,95,58.38,97.45,31.62,6.2
Linqiong,76,CN,1584157581,51,30.42,103.46,64.99,3.89
Sovetskiy,100,RU,1584157582,88,61.36,63.58,33.42,10.56
Departamento de Maldonado,0,UY,1584157583,64,-34.67,-54.92,75.2,12.75
Dickson,90,US,1584157584,45,36.08,-87.39,51.8,5.82
Bourail,100,NC,1584157586,77,-21.57,165.48,80.82,6.82
Tarakan,75,ID,1584157569,79,3.3,117.63,86.0,6.93
Kiruna,0,SE,1584157589,72,67.86,20.23,12.2,9.17
Ugoofaaru,0,MV,1584157590,77,5.67,73.0,83.77,13.67
Coyhaique,3,CL,1584157591,81,-45.58,-72.07,46.4,3.36
Cherskiy,100,RU,1584157592,90,68.75,161.3,-9.85,10.6
Nador,20,MA,1584157593,76,35.17,-2.93,57.2,4.7
Celestún,0,MX,1584157313,81,20.87,-90.4,76.87,26.44
Forssa,78,FI,1584157595,79,60.81,23.62,24.01,6.93
Ejido,95,VE,1584157597,94,8.55,-71.24,50.32,0.67
Wanaka,0,NZ,1584157599,35,-44.7,169.15,63.77,5.5
Kloulklubed,75,PW,1584157600,66,7.04,134.26,86.0,12.75
Siocon,9,PH,1584157601,72,7.71,122.14,82.27,8.66
Santander,0,ES,1584157602,93,43.46,-3.8,46.0,4.43
Port Blair,100,IN,1584157603,68,11.67,92.75,81.93,9.53
Filimonovo,6,RU,1584157604,79,56.2,95.46,31.23,6.51
Pabradė,90,LT,1584157605,97,55.0,25.78,36.0,12.75
Saint-Augustin,100,CA,1584157606,85,51.23,-58.65,17.22,21.34
Portland,75,US,1584157351,80,45.52,-122.68,41.0,6.93
Tra Vinh,24,VN,1584157409,53,9.93,106.35,88.05,10.71
Pundaguitan,3,PH,1584157610,73,6.37,126.17,81.28,8.12
San Ramon,40,US,1584157576,67,37.78,-121.98,57.2,12.75
Pochutla,40,MX,1584157612,74,15.74,-96.47,80.6,9.17
Kotli Loharan,40,PK,1584157613,82,32.59,74.49,55.4,6.93
Cândido Mendes,96,BR,1584157614,89,-1.45,-45.72,76.89,3.71
Druzhba,99,UA,1584157615,82,52.04,33.95,37.27,10.8
Guarapari,90,BR,1584157459,94,-20.67,-40.5,75.2,3.36
Nicoya,3,CR,1584157473,58,10.15,-85.45,82.4,11.41
Inhambane,20,MZ,1584157619,94,-23.86,35.38,73.4,4.92
Barra Patuca,0,HN,1584157623,74,15.8,-84.28,79.7,14.97
Pacific Grove,90,US,1584157624,76,36.62,-121.92,55.4,16.11
Kavaratti,20,IN,1584157625,69,10.57,72.64,82.4,4.7
Balkhash,87,KZ,1584157626,92,46.84,74.98,28.4,13.42
Moree,0,AU,1584157627,42,-29.47,149.85,82.4,8.05
Ganzhou,1,CN,1584157628,52,28.82,115.43,59.54,6.38
Petropavlovka,100,RU,1584157629,77,50.61,105.32,27.09,7.2
Yeppoon,0,AU,1584157630,35,-23.13,150.73,86.0,13.87
Racine,1,US,1584157631,55,42.75,-88.08,39.99,9.33
Zharkent,0,KZ,1584157632,33,44.16,80.0,47.44,6.85
Along,20,IN,1584157633,52,28.17,94.77,72.88,2.33
Alice Springs,0,AU,1584157635,24,-23.7,133.88,91.4,6.93
Bandarbeyla,85,SO,1584157636,80,9.49,50.81,78.69,16.84
Anadyr,100,RU,1584157637,79,64.75,177.48,19.4,8.95
Avera,1,US,1584157638,93,33.19,-82.53,72.0,5.03
Nelson Bay,90,AU,1584157639,93,-32.72,152.15,66.0,21.92
Mogadishu,40,SO,1584157350,74,2.04,45.34,80.6,8.05
Sturgis,1,US,1584157641,55,41.8,-85.42,39.99,9.31
Zyryanka,100,RU,1584157642,71,65.75,150.85,-6.11,3.49
Shenjiamen,28,CN,1584157643,67,29.96,122.3,48.69,16.98
Bambanglipuro,93,ID,1584157644,63,-7.95,110.28,86.18,3.49
Shingū,75,JP,1584157645,87,33.73,135.98,48.2,12.75
Bitkine,48,TD,1584157647,19,11.98,18.21,62.2,7.67
Ürümqi,0,CN,1584157650,55,43.8,87.6,37.4,2.24
Isparta Province,0,TR,1584157651,87,38.0,31.0,46.4,2.24
Okahandja,0,NA,1584157652,42,-21.98,16.92,62.6,6.93
Kulhudhuffushi,0,MV,1584157653,79,6.62,73.07,83.32,14.7
Ashtabula,1,US,1584157654,44,41.7,-80.77,39.99,8.05
Semnan,100,IR,1584157603,22,35.57,53.4,58.87,7.07
Birao,33,CF,1584157656,18,10.28,22.79,70.68,7.61
Kumul,71,CN,1584157657,19,42.8,93.45,41.36,1.88
Lodja,99,CD,1584157658,99,-3.48,23.43,66.94,1.9
Formosa,0,AR,1584157659,62,-26.18,-58.18,84.2,4.7
Esmeraldas,65,BR,1584157452,83,-19.76,-44.31,71.6,10.29
Riohacha,1,CO,1584157662,83,11.54,-72.91,76.35,13.33
Tessalit,0,ML,1584157663,16,20.2,1.01,69.08,11.83
Zhalantun,0,CN,1584157664,57,48.0,122.72,28.56,16.46
Provideniya,100,RU,1584157665,97,64.38,-173.3,28.09,17.56
Teahupoo,20,PF,1584157667,66,-17.83,-149.27,87.8,11.41
Eureka,90,US,1584157668,93,40.8,-124.16,48.0,5.82
Sittwe,0,MM,1584157669,54,20.15,92.9,81.45,3.87
Nizhniy Kuranakh,99,RU,1584157671,86,58.84,125.49,-6.0,7.29
Meulaboh,0,ID,1584157672,77,4.14,96.13,81.91,3.85
San Patricio,0,MX,1584157674,81,19.22,-104.7,75.87,3.04
Hamilton,1,US,1584157675,74,39.18,-84.53,43.0,4.21
Sinnamary,19,GF,1584157676,81,5.38,-52.95,80.49,18.43
Marabu,75,MY,1584157677,79,4.41,114.01,87.8,8.05
Zhigansk,97,RU,1584157678,93,66.77,123.37,-9.08,1.79
Bilma,0,NE,1584157607,30,18.69,12.92,55.47,1.05
Karatuzskoye,49,RU,1584157683,77,53.61,92.87,27.93,3.78
Bilibino,100,RU,1584157684,90,68.05,166.44,-13.07,14.65
Ţahţā,75,EG,1584157685,44,26.77,31.5,60.8,12.75
Am Timan,46,TD,1584157688,19,11.03,20.28,66.27,5.21
Nakapiripirit,88,UG,1584157689,81,1.92,34.78,67.39,5.03
Mitsamiouli,20,KM,1584157690,94,-11.38,43.28,78.8,8.05
Glubokiy,100,RU,1584157691,72,48.52,40.33,48.07,7.02
Oil City,1,US,1584157692,55,41.43,-79.71,37.99,9.17
Antofagasta,40,CL,1584157544,93,-23.65,-70.4,64.4,4.7
Mulchén,69,CL,1584157694,93,-37.72,-72.23,51.44,3.09
Hambantota,0,LK,1584157695,88,6.12,81.12,78.8,2.24
Tsiroanomandidy,100,MG,1584157699,90,-18.77,46.03,65.03,1.14
Bac Lieu,32,VN,1584157700,40,9.29,105.72,91.85,12.44
Marystown,100,CA,1584157701,74,47.17,-55.15,29.14,23.02
Charters Towers,2,AU,1584157702,41,-20.1,146.27,83.14,15.35
Marawi,91,PH,1584157703,76,8.0,124.29,82.0,8.01
Talnakh,75,RU,1584157704,95,69.49,88.4,32.0,24.61
Schiffdorf,75,DE,1584157705,80,53.53,8.65,32.0,3.36
Gawler,20,AU,1584157666,30,-34.6,138.73,72.0,18.34
Cockburn Town,15,TC,1584157707,80,21.46,-71.14,76.89,20.0
Youghal,40,IE,1584157708,93,51.95,-7.85,46.0,5.82
Araioses,100,BR,1584157710,99,-2.89,-41.9,72.66,2.3
Prince Rupert,1,CA,1584157711,36,54.32,-130.32,30.2,14.99
Laguna,1,US,1584157714,71,38.42,-121.42,57.2,21.92
Palu,100,ID,1584157715,70,-0.89,119.87,79.21,1.3
Camacha,75,PT,1584157716,76,33.08,-16.33,60.8,13.87
La Grande,90,US,1584157717,86,45.32,-118.09,39.2,3.89
Kununurra,32,AU,1584157718,39,-15.77,128.73,96.8,6.93
Shubarshi,33,KZ,1584157719,68,48.59,57.19,36.48,14.56
Comodoro Rivadavia,75,AR,1584157720,59,-45.87,-67.5,64.4,11.41
Flinders,100,AU,1584157721,87,-34.58,150.86,55.99,5.01
Coquimbo,50,CL,1584157722,87,-29.95,-71.34,60.8,3.36
Cervo,73,ES,1584157723,1,43.67,-7.41,46.0,1.01
Dingle,62,PH,1584157724,64,11.0,122.67,84.49,9.78
Gweta,27,BW,1584157725,80,-20.18,25.23,70.34,4.23
West Bay,0,KY,1584157727,88,19.37,-81.42,78.8,5.82
Huilong,67,CN,1584157728,57,31.81,121.66,53.01,5.01
Wanning,79,CN,1584157729,80,18.8,110.4,78.42,4.56
Itarema,100,BR,1584157730,98,-2.92,-39.92,73.96,3.44
Sitka,75,US,1584157731,51,57.05,-135.33,35.6,24.16
Luau,100,AO,1584157732,99,-10.71,22.22,66.02,2.17
Krasnosel'kup,100,RU,1584157733,89,65.7,82.47,33.73,19.93
Praia da Vitória,20,PT,1584157734,82,38.73,-27.07,57.2,4.16
Olafsvik,100,IS,1584157735,75,64.89,-23.71,27.39,28.43
Carinhanha,5,BR,1584157736,95,-14.3,-43.77,69.57,2.48
Weligama,0,LK,1584157737,65,5.97,80.42,81.54,5.95
Narsaq,95,GL,1584157738,79,60.92,-46.05,19.4,1.12
Taoudenni,0,ML,1584157739,13,22.68,-3.98,67.66,6.13
Lebedinyy,100,RU,1584157741,88,58.52,125.52,-11.16,5.68
Champerico,20,GT,1584157742,72,14.3,-91.92,78.71,4.36
Rovaniemi,20,FI,1584157743,78,66.5,25.72,8.6,11.41
Myitkyina,0,MM,1584157744,33,25.38,97.4,80.98,3.42
Kieta,91,PG,1584157745,80,-6.22,155.63,83.98,17.4
Teya,100,RU,1584157746,87,60.38,92.63,28.65,7.78
Manacapuru,76,BR,1584157747,83,-3.3,-60.62,80.6,1.77
Vāghodia,0,IN,1584157748,52,22.3,73.38,66.2,9.17
Trincomalee,8,LK,1584157749,62,8.57,81.23,81.99,5.08
Haines Junction,49,CA,1584157750,74,60.75,-137.51,5.47,1.66
Weiser,1,US,1584157751,24,44.25,-116.97,48.2,4.7
Gull Lake,90,CA,1584157502,71,50.1,-108.48,6.8,21.92
Manokwari,50,ID,1584157754,88,-0.87,134.08,78.44,7.49
Beringovskiy,100,RU,1584157755,91,63.05,179.32,21.52,14.34
Yerbogachën,53,RU,1584157756,86,61.28,108.01,5.36,8.5
Stettler,100,CA,1584157696,83,52.32,-112.72,-2.0,5.01
Tongliao,0,CN,1584157758,35,43.61,122.27,39.7,15.12
Adana Province,75,TR,1584157560,72,36.98,35.29,60.01,8.05
Aleksandrovskiy Zavod,58,RU,1584157760,65,50.92,117.94,18.36,20.33
Brenham,75,US,1584157761,78,30.17,-96.4,75.2,6.93
Urengoy,100,RU,1584157512,93,65.97,78.37,33.48,19.22
Eldorado,0,BR,1584157763,78,-23.79,-54.28,74.66,2.39
Port Hardy,20,CA,1584157764,40,50.7,-127.42,35.6,21.92
Cayenne,75,GF,1584157722,74,4.93,-52.33,80.6,11.41
Phang Nga,20,TH,1584157767,58,8.45,98.53,89.6,8.05
Nanortalik,100,GL,1584157769,71,60.14,-45.24,23.27,12.55
Carora,51,VE,1584157770,80,10.18,-70.08,70.95,3.91
Assen,0,NL,1584157771,100,53.0,6.56,35.01,2.24
Iberia,1,US,1584157772,94,29.95,-91.75,70.0,4.7
Mount Isa,0,AU,1584157773,25,-20.73,139.5,89.6,13.87
Bethanien,0,NA,1584157774,60,-26.5,17.16,62.11,2.39
Arcata,90,US,1584157502,93,40.87,-124.08,48.0,5.82
Caraz,95,PE,1584157776,91,-9.05,-77.81,51.8,2.1
Kibre Mengist,69,ET,1584157777,76,5.88,38.98,63.16,0.76
Oskarshamn,0,SE,1584157778,92,57.26,16.45,28.99,9.17
Monrovia,40,LR,1584157779,94,6.3,-10.8,80.6,3.36
Tinskoy,0,RU,1584157780,93,56.15,96.92,33.76,4.16
Yerofey Pavlovich,59,RU,1584157782,65,53.97,121.97,5.14,13.87
Dahuk,100,IQ,1584157784,81,36.87,42.99,50.31,6.4
Bol,3,TD,1584157785,37,13.46,14.71,66.38,16.78
Cedar Lake,1,US,1584157786,41,41.36,-87.44,43.0,6.93
Takoradze,0,GH,1584157787,94,4.88,-1.76,77.74,2.93
Mt. Pleasant,20,US,1584157788,82,32.79,-79.86,68.0,5.3
Bijbehara,100,IN,1584157789,77,33.8,75.1,38.95,1.68
Maţāy,80,EG,1584157791,75,28.42,30.78,57.13,8.52
Kiama,90,AU,1584157793,71,-34.68,150.87,57.2,6.93
The Valley,75,AI,1584157794,88,18.22,-63.06,78.01,6.93
Robertsport,52,LR,1584157796,88,6.75,-11.37,81.66,10.47
Pala,100,TD,1584157797,17,9.36,14.9,66.24,5.99
Águas Vermelhas,41,BR,1584157798,99,-15.75,-41.46,64.04,2.86
Vaxjo,0,SE,1584157799,79,56.88,14.81,25.0,6.93
Storforshei,100,NO,1584157800,97,66.4,14.52,8.37,2.77
San Francisco,90,US,1584157127,76,37.77,-122.42,55.99,14.99
Salvacion,52,PH,1584157802,56,7.98,126.13,86.16,4.29
İslahiye,75,TR,1584157803,67,37.02,36.63,60.01,11.41
Codrington,80,AU,1584157804,67,-38.27,141.97,56.73,17.2
Solnechnyy,100,RU,1584157805,86,50.72,136.63,12.43,4.21
Oussouye,0,SN,1584157806,50,12.48,-16.55,78.8,6.93
Hukay,42,PH,1584157808,69,13.85,120.7,82.0,3.96
Mnogovershinnyy,15,RU,1584157811,67,53.94,139.92,8.6,3.42
